[
	{
		"id": "92ab0891-5d85-ef11-bdfd-000d3ab84645",
		"createdAt": "1728382248366",
		"updatedAt": "1730986178445",
		"createdBy": "emmanuella.ndukwe@neptune-software.com",
		"updatedBy": "emmanuella.ndukwe@neptune-software.com",
		"name": "Group B - Peugeot 208",
		"make": "Peugeot",
		"model": "208",
		"vehicle_transmission": "Manual",
		"image_url": "/media/root/CarDamageSelectorApp/2014-peugeot-208-allure-5door-hatchback_white.png",
		"features": {
			"bluetooth_equipped": false,
			"air_conditioned": true,
			"connected_car": false
		},
		"doors": "5",
		"seats": "5",
		"currency": "EUR",
		"vehicle_total": "121",
		"reservation_total": "145.2",
		"pickup_location": {
			"location": {
				"code": "AE2",
				"name": "Paris Gare Montparnasse",
				"telephone": "(33) 8 20 00 61 00",
				"hours": "Sun 8:00 AM - 10:30 PM; Mon - Fri 7:00 AM - 9:30 PM; Sat 7:00 AM - 7:00 PM",
				"airport_location": false
			},
			"address": {
				"address_line_1": "Hall 2 Pasteur",
				"address_line_2": "5 Place Des Martyrs",
				"city": "Paris",
				"state_name": "XX",
				"postal_code": "75014",
				"country_code": "FR"
			}
		},
		"dropoff_location": {
			"location": {
				"code": "AE2",
				"name": "Paris Gare Montparnasse",
				"telephone": "(33) 8 20 00 61 00",
				"hours": "Sun 8:00 AM - 10:30 PM; Mon - Fri 7:00 AM - 9:30 PM; Sat 7:00 AM - 7:00 PM",
				"airport_location": false
			},
			"address": {
				"address_line_1": "Hall 2 Pasteur",
				"address_line_2": "5 Place Des Martyrs",
				"city": "Paris",
				"state_name": "XX",
				"postal_code": "75014",
				"country_code": "FR"
			}
		},
		"status": "AVAILABLE",
		"parts": {
			"path1": {
				"type": "",
				"severity": 0
			},
			"path2": {
				"type": "",
				"severity": 0
			},
			"path3": {
				"type": "",
				"severity": 0
			},
			"path4": {
				"type": "",
				"severity": 0
			},
			"path5": {
				"type": "",
				"severity": 0
			},
			"path6": {
				"type": "",
				"severity": 0
			},
			"path7": {
				"type": "",
				"severity": 0
			},
			"path8": {
				"type": "",
				"severity": 0
			},
			"path9": {
				"type": "chip",
				"severity": 0.65
			},
			"path10": {
				"type": "",
				"severity": 0
			},
			"path11": {
				"type": "",
				"severity": 0
			},
			"path12": {
				"type": "",
				"severity": 0
			},
			"path13": {
				"type": "scratch",
				"severity": 0.62
			},
			"path14": {
				"type": "",
				"severity": 0
			},
			"path15": {
				"type": "",
				"severity": 0
			}
		}
	},
	{
		"id": "91ab0891-5d85-ef11-bdfd-000d3ab84645",
		"createdAt": "1728382248365",
		"updatedAt": "1730986178445",
		"createdBy": "emmanuella.ndukwe@neptune-software.com",
		"updatedBy": "emmanuella.ndukwe@neptune-software.com",
		"name": "Group O - Renault Grand Scenic",
		"make": "Renault",
		"model": "Grand Scenic",
		"vehicle_transmission": "Manual",
		"image_url": "/media/root/CarDamageSelectorApp/2014-renault-scenic-bose-edition-mini-mpv-white.png",
		"features": {
			"bluetooth_equipped": false,
			"air_conditioned": true,
			"connected_car": false
		},
		"doors": "5",
		"seats": "7",
		"currency": "EUR",
		"vehicle_total": "390.67",
		"reservation_total": "390.67",
		"pickup_location": {
			"location": {
				"code": "AE2",
				"name": "Paris Gare Montparnasse",
				"telephone": "(33) 8 20 00 61 00",
				"hours": "Sun 8:00 AM - 10:30 PM; Mon - Fri 7:00 AM - 9:30 PM; Sat 7:00 AM - 7:00 PM",
				"airport_location": false
			},
			"address": {
				"address_line_1": "Hall 2 Pasteur",
				"address_line_2": "5 Place Des Martyrs",
				"city": "Paris",
				"state_name": "XX",
				"postal_code": "75014",
				"country_code": "FR"
			}
		},
		"dropoff_location": {
			"location": {
				"code": "AE2",
				"name": "Paris Gare Montparnasse",
				"telephone": "(33) 8 20 00 61 00",
				"hours": "Sun 8:00 AM - 10:30 PM; Mon - Fri 7:00 AM - 9:30 PM; Sat 7:00 AM - 7:00 PM",
				"airport_location": false
			},
			"address": {
				"address_line_1": "Hall 2 Pasteur",
				"address_line_2": "5 Place Des Martyrs",
				"city": "Paris",
				"state_name": "XX",
				"postal_code": "75014",
				"country_code": "FR"
			}
		},
		"status": "AVAILABLE",
		"parts": {
			"path1": {
				"type": "",
				"severity": 0
			},
			"path2": {
				"type": "",
				"severity": 0
			},
			"path3": {
				"type": "",
				"severity": 0
			},
			"path4": {
				"type": "",
				"severity": 0
			},
			"path5": {
				"type": "",
				"severity": 0
			},
			"path6": {
				"type": "",
				"severity": 0
			},
			"path7": {
				"type": "",
				"severity": 0
			},
			"path8": {
				"type": "",
				"severity": 0
			},
			"path9": {
				"type": "chip",
				"severity": 0.65
			},
			"path10": {
				"type": "",
				"severity": 0
			},
			"path11": {
				"type": "",
				"severity": 0
			},
			"path12": {
				"type": "",
				"severity": 0
			},
			"path13": {
				"type": "scratch",
				"severity": 0.62
			},
			"path14": {
				"type": "",
				"severity": 0
			},
			"path15": {
				"type": "",
				"severity": 0
			}
		}
	},
	{
		"id": "90ab0891-5d85-ef11-bdfd-000d3ab84645",
		"createdAt": "1728382248365",
		"updatedAt": "1730986178445",
		"createdBy": "emmanuella.ndukwe@neptune-software.com",
		"updatedBy": "emmanuella.ndukwe@neptune-software.com",
		"name": "Group A - Fiat 500",
		"make": "Fiat",
		"model": "500",
		"vehicle_transmission": "Manual",
		"image_url": "/media/root/CarDamageSelectorApp/2019-fiat-500-pop-3door-hatchback-white.avif",
		"features": {
			"bluetooth_equipped": false,
			"air_conditioned": true,
			"connected_car": false
		},
		"doors": "3",
		"seats": "4",
		"currency": "EUR",
		"vehicle_total": "121",
		"reservation_total": "145.2",
		"pickup_location": {
			"location": {
				"code": "AE2",
				"name": "Paris Gare Montparnasse",
				"telephone": "(33) 8 20 00 61 00",
				"hours": "Sun 8:00 AM - 10:30 PM; Mon - Fri 7:00 AM - 9:30 PM; Sat 7:00 AM - 7:00 PM",
				"airport_location": false
			},
			"address": {
				"address_line_1": "Hall 2 Pasteur",
				"address_line_2": "5 Place Des Martyrs",
				"city": "Paris",
				"state_name": "XX",
				"postal_code": "75014",
				"country_code": "FR"
			}
		},
		"dropoff_location": {
			"location": {
				"code": "AE2",
				"name": "Paris Gare Montparnasse",
				"telephone": "(33) 8 20 00 61 00",
				"hours": "Sun 8:00 AM - 10:30 PM; Mon - Fri 7:00 AM - 9:30 PM; Sat 7:00 AM - 7:00 PM",
				"airport_location": false
			},
			"address": {
				"address_line_1": "Hall 2 Pasteur",
				"address_line_2": "5 Place Des Martyrs",
				"city": "Paris",
				"state_name": "XX",
				"postal_code": "75014",
				"country_code": "FR"
			}
		},
		"status": "AVAILABLE",
		"parts": {
			"path1": {
				"type": "",
				"severity": 0
			},
			"path2": {
				"type": "",
				"severity": 0
			},
			"path3": {
				"type": "",
				"severity": 0
			},
			"path4": {
				"type": "",
				"severity": 0
			},
			"path5": {
				"type": "",
				"severity": 0
			},
			"path6": {
				"type": "",
				"severity": 0
			},
			"path7": {
				"type": "",
				"severity": 0
			},
			"path8": {
				"type": "",
				"severity": 0
			},
			"path9": {
				"type": "chip",
				"severity": 0.65
			},
			"path10": {
				"type": "",
				"severity": 0
			},
			"path11": {
				"type": "",
				"severity": 0
			},
			"path12": {
				"type": "",
				"severity": 0
			},
			"path13": {
				"type": "scratch",
				"severity": 0.62
			},
			"path14": {
				"type": "",
				"severity": 0
			},
			"path15": {
				"type": "",
				"severity": 0
			}
		}
	},
	{
		"id": "8fab0891-5d85-ef11-bdfd-000d3ab84645",
		"createdAt": "1728382248365",
		"updatedAt": "1730986178445",
		"createdBy": "emmanuella.ndukwe@neptune-software.com",
		"updatedBy": "emmanuella.ndukwe@neptune-software.com",
		"name": "Group K - Hyundai Kona Electric",
		"make": "Hyundai",
		"model": "Kona Electric",
		"vehicle_transmission": "Automatic",
		"image_url": "/media/root/CarDamageSelectorApp/2021-hyundai-kona-ev-sky-suv-white.png",
		"features": {
			"bluetooth_equipped": false,
			"air_conditioned": true,
			"connected_car": false
		},
		"doors": "5",
		"seats": "5",
		"currency": "EUR",
		"vehicle_total": "228.84",
		"reservation_total": "228.84",
		"pickup_location": {
			"location": {
				"code": "AE2",
				"name": "Paris Gare Montparnasse",
				"telephone": "(33) 8 20 00 61 00",
				"hours": "Sun 8:00 AM - 10:30 PM; Mon - Fri 7:00 AM - 9:30 PM; Sat 7:00 AM - 7:00 PM",
				"airport_location": false
			},
			"address": {
				"address_line_1": "Hall 2 Pasteur",
				"address_line_2": "5 Place Des Martyrs",
				"city": "Paris",
				"state_name": "XX",
				"postal_code": "75014",
				"country_code": "FR"
			}
		},
		"dropoff_location": {
			"location": {
				"code": "AE2",
				"name": "Paris Gare Montparnasse",
				"telephone": "(33) 8 20 00 61 00",
				"hours": "Sun 8:00 AM - 10:30 PM; Mon - Fri 7:00 AM - 9:30 PM; Sat 7:00 AM - 7:00 PM",
				"airport_location": false
			},
			"address": {
				"address_line_1": "Hall 2 Pasteur",
				"address_line_2": "5 Place Des Martyrs",
				"city": "Paris",
				"state_name": "XX",
				"postal_code": "75014",
				"country_code": "FR"
			}
		},
		"status": "AVAILABLE",
		"parts": {
			"path1": {
				"type": "",
				"severity": 0
			},
			"path2": {
				"type": "",
				"severity": 0
			},
			"path3": {
				"type": "",
				"severity": 0
			},
			"path4": {
				"type": "",
				"severity": 0
			},
			"path5": {
				"type": "",
				"severity": 0
			},
			"path6": {
				"type": "",
				"severity": 0
			},
			"path7": {
				"type": "",
				"severity": 0
			},
			"path8": {
				"type": "",
				"severity": 0
			},
			"path9": {
				"type": "chip",
				"severity": 0.65
			},
			"path10": {
				"type": "",
				"severity": 0
			},
			"path11": {
				"type": "",
				"severity": 0
			},
			"path12": {
				"type": "",
				"severity": 0
			},
			"path13": {
				"type": "scratch",
				"severity": 0.62
			},
			"path14": {
				"type": "",
				"severity": 0
			},
			"path15": {
				"type": "",
				"severity": 0
			}
		}
	},
	{
		"id": "8eab0891-5d85-ef11-bdfd-000d3ab84645",
		"createdAt": "1728382248365",
		"updatedAt": "1730986178445",
		"createdBy": "emmanuella.ndukwe@neptune-software.com",
		"updatedBy": "emmanuella.ndukwe@neptune-software.com",
		"name": "Group I - Fiat 500 Electric",
		"make": "Fiat",
		"model": "500 Electric",
		"vehicle_transmission": "Automatic",
		"image_url": "/media/root/CarDamageSelectorApp/2019-fiat-500-pop-3door-hatchback-white.png",
		"features": {
			"bluetooth_equipped": false,
			"air_conditioned": true,
			"connected_car": false
		},
		"doors": "5",
		"seats": "4",
		"currency": "EUR",
		"vehicle_total": "163.13",
		"reservation_total": "163.13",
		"pickup_location": {
			"location": {
				"code": "AE2",
				"name": "Paris Gare Montparnasse",
				"telephone": "(33) 8 20 00 61 00",
				"hours": "Sun 8:00 AM - 10:30 PM; Mon - Fri 7:00 AM - 9:30 PM; Sat 7:00 AM - 7:00 PM",
				"airport_location": false
			},
			"address": {
				"address_line_1": "Hall 2 Pasteur",
				"address_line_2": "5 Place Des Martyrs",
				"city": "Paris",
				"state_name": "XX",
				"postal_code": "75014",
				"country_code": "FR"
			}
		},
		"dropoff_location": {
			"location": {
				"code": "AE2",
				"name": "Paris Gare Montparnasse",
				"telephone": "(33) 8 20 00 61 00",
				"hours": "Sun 8:00 AM - 10:30 PM; Mon - Fri 7:00 AM - 9:30 PM; Sat 7:00 AM - 7:00 PM",
				"airport_location": false
			},
			"address": {
				"address_line_1": "Hall 2 Pasteur",
				"address_line_2": "5 Place Des Martyrs",
				"city": "Paris",
				"state_name": "XX",
				"postal_code": "75014",
				"country_code": "FR"
			}
		},
		"status": "AVAILABLE",
		"parts": {
			"path1": {
				"type": "",
				"severity": 0
			},
			"path2": {
				"type": "",
				"severity": 0
			},
			"path3": {
				"type": "",
				"severity": 0
			},
			"path4": {
				"type": "",
				"severity": 0
			},
			"path5": {
				"type": "",
				"severity": 0
			},
			"path6": {
				"type": "",
				"severity": 0
			},
			"path7": {
				"type": "",
				"severity": 0
			},
			"path8": {
				"type": "",
				"severity": 0
			},
			"path9": {
				"type": "chip",
				"severity": 0.65
			},
			"path10": {
				"type": "",
				"severity": 0
			},
			"path11": {
				"type": "",
				"severity": 0
			},
			"path12": {
				"type": "",
				"severity": 0
			},
			"path13": {
				"type": "scratch",
				"severity": 0.62
			},
			"path14": {
				"type": "",
				"severity": 0
			},
			"path15": {
				"type": "",
				"severity": 0
			}
		}
	},
	{
		"id": "8dab0891-5d85-ef11-bdfd-000d3ab84645",
		"createdAt": "1728382248364",
		"updatedAt": "1730986178445",
		"createdBy": "emmanuella.ndukwe@neptune-software.com",
		"updatedBy": "emmanuella.ndukwe@neptune-software.com",
		"name": "Group H - Ford Focus SW",
		"make": "Ford",
		"model": "Focus SW",
		"vehicle_transmission": "Manual",
		"image_url": "/media/root/CarDamageSelectorApp/2019-ford-focus-clipper-vignale-wagon-white.png",
		"features": {
			"bluetooth_equipped": false,
			"air_conditioned": true,
			"connected_car": false
		},
		"doors": "5",
		"seats": "5",
		"currency": "EUR",
		"vehicle_total": "157.4",
		"reservation_total": "188.88",
		"pickup_location": {
			"location": {
				"code": "AE2",
				"name": "Paris Gare Montparnasse",
				"telephone": "(33) 8 20 00 61 00",
				"hours": "Sun 8:00 AM - 10:30 PM; Mon - Fri 7:00 AM - 9:30 PM; Sat 7:00 AM - 7:00 PM",
				"airport_location": false
			},
			"address": {
				"address_line_1": "Hall 2 Pasteur",
				"address_line_2": "5 Place Des Martyrs",
				"city": "Paris",
				"state_name": "XX",
				"postal_code": "75014",
				"country_code": "FR"
			}
		},
		"dropoff_location": {
			"location": {
				"code": "AE2",
				"name": "Paris Gare Montparnasse",
				"telephone": "(33) 8 20 00 61 00",
				"hours": "Sun 8:00 AM - 10:30 PM; Mon - Fri 7:00 AM - 9:30 PM; Sat 7:00 AM - 7:00 PM",
				"airport_location": false
			},
			"address": {
				"address_line_1": "Hall 2 Pasteur",
				"address_line_2": "5 Place Des Martyrs",
				"city": "Paris",
				"state_name": "XX",
				"postal_code": "75014",
				"country_code": "FR"
			}
		},
		"status": "RENTED",
		"parts": {
			"path1": {
				"type": "",
				"severity": 0
			},
			"path2": {
				"type": "",
				"severity": 0
			},
			"path3": {
				"type": "",
				"severity": 0
			},
			"path4": {
				"type": "",
				"severity": 0
			},
			"path5": {
				"type": "",
				"severity": 0
			},
			"path6": {
				"type": "",
				"severity": 0
			},
			"path7": {
				"type": "",
				"severity": 0
			},
			"path8": {
				"type": "",
				"severity": 0
			},
			"path9": {
				"type": "chip",
				"severity": 0.65
			},
			"path10": {
				"type": "",
				"severity": 0
			},
			"path11": {
				"type": "",
				"severity": 0
			},
			"path12": {
				"type": "",
				"severity": 0
			},
			"path13": {
				"type": "scratch",
				"severity": 0.62
			},
			"path14": {
				"type": "",
				"severity": 0
			},
			"path15": {
				"type": "",
				"severity": 0
			}
		}
	},
	{
		"id": "8cab0891-5d85-ef11-bdfd-000d3ab84645",
		"createdAt": "1728382248364",
		"updatedAt": "1730986178445",
		"createdBy": "emmanuella.ndukwe@neptune-software.com",
		"updatedBy": "emmanuella.ndukwe@neptune-software.com",
		"name": "Group F - Mercedes-Benz CLA",
		"make": "Mercedes-Benz",
		"model": "CLA",
		"vehicle_transmission": "Automatic",
		"image_url": "/media/root/CarDamageSelectorApp/2020-mercedes-benz-cla-250-4wd-suv-white.png",
		"features": {
			"bluetooth_equipped": false,
			"air_conditioned": true,
			"connected_car": false
		},
		"doors": "5",
		"seats": "5",
		"currency": "EUR",
		"vehicle_total": "400.21",
		"reservation_total": "400.21",
		"pickup_location": {
			"location": {
				"code": "AE2",
				"name": "Paris Gare Montparnasse",
				"telephone": "(33) 8 20 00 61 00",
				"hours": "Sun 8:00 AM - 10:30 PM; Mon - Fri 7:00 AM - 9:30 PM; Sat 7:00 AM - 7:00 PM",
				"airport_location": false
			},
			"address": {
				"address_line_1": "Hall 2 Pasteur",
				"address_line_2": "5 Place Des Martyrs",
				"city": "Paris",
				"state_name": "XX",
				"postal_code": "75014",
				"country_code": "FR"
			}
		},
		"dropoff_location": {
			"location": {
				"code": "AE2",
				"name": "Paris Gare Montparnasse",
				"telephone": "(33) 8 20 00 61 00",
				"hours": "Sun 8:00 AM - 10:30 PM; Mon - Fri 7:00 AM - 9:30 PM; Sat 7:00 AM - 7:00 PM",
				"airport_location": false
			},
			"address": {
				"address_line_1": "Hall 2 Pasteur",
				"address_line_2": "5 Place Des Martyrs",
				"city": "Paris",
				"state_name": "XX",
				"postal_code": "75014",
				"country_code": "FR"
			}
		},
		"status": "AVAILABLE",
		"parts": {
			"path1": {
				"type": "",
				"severity": 0
			},
			"path2": {
				"type": "",
				"severity": 0
			},
			"path3": {
				"type": "",
				"severity": 0
			},
			"path4": {
				"type": "",
				"severity": 0
			},
			"path5": {
				"type": "",
				"severity": 0
			},
			"path6": {
				"type": "",
				"severity": 0
			},
			"path7": {
				"type": "",
				"severity": 0
			},
			"path8": {
				"type": "",
				"severity": 0
			},
			"path9": {
				"type": "chip",
				"severity": 0.65
			},
			"path10": {
				"type": "",
				"severity": 0
			},
			"path11": {
				"type": "",
				"severity": 0
			},
			"path12": {
				"type": "",
				"severity": 0
			},
			"path13": {
				"type": "scratch",
				"severity": 0.62
			},
			"path14": {
				"type": "",
				"severity": 0
			},
			"path15": {
				"type": "",
				"severity": 0
			}
		}
	},
	{
		"id": "8bab0891-5d85-ef11-bdfd-000d3ab84645",
		"createdAt": "1728382248363",
		"updatedAt": "1730988547796",
		"createdBy": "emmanuella.ndukwe@neptune-software.com",
		"updatedBy": "emmanuella.ndukwe@neptune-software.com",
		"name": "Jaguar-f-type-coupe-2d-gold",
		"make": "Jaguar",
		"model": "2021-JV",
		"vehicle_transmission": "Automatic",
		"image_url": "/media/root/CarDamageSelectorApp/jaguar-f-type-coupe-2d-gold-2021-JV.png",
		"features": {
			"bluetooth_equipped": false,
			"air_conditioned": true,
			"connected_car": false
		},
		"doors": "3",
		"seats": "4",
		"currency": "EUR",
		"vehicle_total": "190",
		"reservation_total": "225.2",
		"pickup_location": {
			"location": {
				"code": "AE2",
				"name": "Paris Gare Montparnasse",
				"telephone": "(33) 8 20 00 61 00",
				"hours": "Sun 8:00 AM - 10:30 PM; Mon - Fri 7:00 AM - 9:30 PM; Sat 7:00 AM - 7:00 PM",
				"airport_location": false
			},
			"address": {
				"address_line_1": "Hall 2 Pasteur",
				"address_line_2": "5 Place Des Martyrs",
				"city": "Paris",
				"state_name": "XX",
				"postal_code": "75014",
				"country_code": "FR"
			}
		},
		"dropoff_location": {
			"location": {
				"code": "AE2",
				"name": "Paris Gare Montparnasse",
				"telephone": "(33) 8 20 00 61 00",
				"hours": "Sun 8:00 AM - 10:30 PM; Mon - Fri 7:00 AM - 9:30 PM; Sat 7:00 AM - 7:00 PM",
				"airport_location": false
			},
			"address": {
				"address_line_1": "Hall 2 Pasteur",
				"address_line_2": "5 Place Des Martyrs",
				"city": "Paris",
				"state_name": "XX",
				"postal_code": "75014",
				"country_code": "FR"
			}
		},
		"status": "AVAILABLE",
		"parts": {
			"path1": {
				"type": "",
				"severity": 0
			},
			"path2": {
				"type": "",
				"severity": 0
			},
			"path3": {
				"type": "",
				"severity": 0
			},
			"path4": {
				"type": "",
				"severity": 0
			},
			"path5": {
				"type": "",
				"severity": 0
			},
			"path6": {
				"type": "",
				"severity": 0
			},
			"path7": {
				"type": "",
				"severity": 0
			},
			"path8": {
				"type": "",
				"severity": 0
			},
			"path9": {
				"type": "chip",
				"severity": 0.79
			},
			"path10": {
				"type": "chip",
				"severity": 0.27
			},
			"path11": {
				"type": "",
				"severity": 0
			},
			"path12": {
				"type": "dent",
				"severity": 0.89
			},
			"path13": {
				"type": "",
				"severity": 0
			},
			"path14": {
				"type": "dent",
				"severity": 0.89
			},
			"path15": {
				"type": "",
				"severity": 0
			}
		}
	},
	{
		"id": "8aab0891-5d85-ef11-bdfd-000d3ab84645",
		"createdAt": "1728382248364",
		"updatedAt": "1730986178445",
		"createdBy": "emmanuella.ndukwe@neptune-software.com",
		"updatedBy": "emmanuella.ndukwe@neptune-software.com",
		"name": "Hyundai Tucson",
		"make": "Hyundai",
		"model": "Tucson",
		"vehicle_transmission": "Automatic",
		"image_url": "/media/root/CarDamageSelectorApp/2021-hyundai-tucson-sel-4wd-suv-white.png",
		"features": {
			"bluetooth_equipped": false,
			"air_conditioned": true,
			"connected_car": false
		},
		"doors": "5",
		"seats": "5",
		"currency": "EUR",
		"vehicle_total": "204.6",
		"reservation_total": "245.52",
		"pickup_location": {
			"location": {
				"code": "AE2",
				"name": "Paris Gare Montparnasse",
				"telephone": "(33) 8 20 00 61 00",
				"hours": "Sun 8:00 AM - 10:30 PM; Mon - Fri 7:00 AM - 9:30 PM; Sat 7:00 AM - 7:00 PM",
				"airport_location": false
			},
			"address": {
				"address_line_1": "Hall 2 Pasteur",
				"address_line_2": "5 Place Des Martyrs",
				"city": "Paris",
				"state_name": "XX",
				"postal_code": "75014",
				"country_code": "FR"
			}
		},
		"dropoff_location": {
			"location": {
				"code": "AE2",
				"name": "Paris Gare Montparnasse",
				"telephone": "(33) 8 20 00 61 00",
				"hours": "Sun 8:00 AM - 10:30 PM; Mon - Fri 7:00 AM - 9:30 PM; Sat 7:00 AM - 7:00 PM",
				"airport_location": false
			},
			"address": {
				"address_line_1": "Hall 2 Pasteur",
				"address_line_2": "5 Place Des Martyrs",
				"city": "Paris",
				"state_name": "XX",
				"postal_code": "75014",
				"country_code": "FR"
			}
		},
		"status": "AVAILABLE",
		"parts": {
			"path1": {
				"type": "",
				"severity": 0
			},
			"path2": {
				"type": "",
				"severity": 0
			},
			"path3": {
				"type": "",
				"severity": 0
			},
			"path4": {
				"type": "",
				"severity": 0
			},
			"path5": {
				"type": "",
				"severity": 0
			},
			"path6": {
				"type": "",
				"severity": 0
			},
			"path7": {
				"type": "",
				"severity": 0
			},
			"path8": {
				"type": "",
				"severity": 0
			},
			"path9": {
				"type": "chip",
				"severity": 0.65
			},
			"path10": {
				"type": "",
				"severity": 0
			},
			"path11": {
				"type": "",
				"severity": 0
			},
			"path12": {
				"type": "",
				"severity": 0
			},
			"path13": {
				"type": "scratch",
				"severity": 0.62
			},
			"path14": {
				"type": "",
				"severity": 0
			},
			"path15": {
				"type": "",
				"severity": 0
			}
		}
	},
	{
		"id": "89ab0891-5d85-ef11-bdfd-000d3ab84645",
		"createdAt": "1728382248363",
		"updatedAt": "1730986178445",
		"createdBy": "emmanuella.ndukwe@neptune-software.com",
		"updatedBy": "emmanuella.ndukwe@neptune-software.com",
		"name": "Group D - Nissan Qashqai",
		"make": "Nissan",
		"model": "Qashqai",
		"vehicle_transmission": "Manual",
		"image_url": "/media/root/CarDamageSelectorApp/2015-nissan-qashqai-suv-white.png",
		"features": {
			"bluetooth_equipped": false,
			"air_conditioned": true,
			"connected_car": false
		},
		"doors": "5",
		"seats": "5",
		"currency": "EUR",
		"vehicle_total": "157.4",
		"reservation_total": "188.88",
		"pickup_location": {
			"location": {
				"code": "AE2",
				"name": "Paris Gare Montparnasse",
				"telephone": "(33) 8 20 00 61 00",
				"hours": "Sun 8:00 AM - 10:30 PM; Mon - Fri 7:00 AM - 9:30 PM; Sat 7:00 AM - 7:00 PM",
				"airport_location": false
			},
			"address": {
				"address_line_1": "Hall 2 Pasteur",
				"address_line_2": "5 Place Des Martyrs",
				"city": "Paris",
				"state_name": "XX",
				"postal_code": "75014",
				"country_code": "FR"
			}
		},
		"dropoff_location": {
			"location": {
				"code": "AE2",
				"name": "Paris Gare Montparnasse",
				"telephone": "(33) 8 20 00 61 00",
				"hours": "Sun 8:00 AM - 10:30 PM; Mon - Fri 7:00 AM - 9:30 PM; Sat 7:00 AM - 7:00 PM",
				"airport_location": false
			},
			"address": {
				"address_line_1": "Hall 2 Pasteur",
				"address_line_2": "5 Place Des Martyrs",
				"city": "Paris",
				"state_name": "XX",
				"postal_code": "75014",
				"country_code": "FR"
			}
		},
		"status": "AVAILABLE",
		"parts": {
			"path1": {
				"type": "",
				"severity": 0
			},
			"path2": {
				"type": "",
				"severity": 0
			},
			"path3": {
				"type": "",
				"severity": 0
			},
			"path4": {
				"type": "",
				"severity": 0
			},
			"path5": {
				"type": "",
				"severity": 0
			},
			"path6": {
				"type": "",
				"severity": 0
			},
			"path7": {
				"type": "",
				"severity": 0
			},
			"path8": {
				"type": "",
				"severity": 0
			},
			"path9": {
				"type": "chip",
				"severity": 0.65
			},
			"path10": {
				"type": "",
				"severity": 0
			},
			"path11": {
				"type": "",
				"severity": 0
			},
			"path12": {
				"type": "",
				"severity": 0
			},
			"path13": {
				"type": "scratch",
				"severity": 0.62
			},
			"path14": {
				"type": "",
				"severity": 0
			},
			"path15": {
				"type": "",
				"severity": 0
			}
		}
	},
	{
		"id": "88ab0891-5d85-ef11-bdfd-000d3ab84645",
		"createdAt": "1728382248363",
		"updatedAt": "1730986178445",
		"createdBy": "emmanuella.ndukwe@neptune-software.com",
		"updatedBy": "emmanuella.ndukwe@neptune-software.com",
		"name": "Group C - Peugeot 2008",
		"make": "Peugeot",
		"model": "2008",
		"vehicle_transmission": "Manual",
		"image_url": "/media/root/CarDamageSelectorApp/2018-peugeot-3008-allure-suv-white.png",
		"features": {
			"bluetooth_equipped": false,
			"air_conditioned": true,
			"connected_car": false
		},
		"doors": "5",
		"seats": "5",
		"currency": "EUR",
		"vehicle_total": "129",
		"reservation_total": "154.8",
		"pickup_location": {
			"location": {
				"code": "AE2",
				"name": "Paris Gare Montparnasse",
				"telephone": "(33) 8 20 00 61 00",
				"hours": "Sun 8:00 AM - 10:30 PM; Mon - Fri 7:00 AM - 9:30 PM; Sat 7:00 AM - 7:00 PM",
				"airport_location": false
			},
			"address": {
				"address_line_1": "Hall 2 Pasteur",
				"address_line_2": "5 Place Des Martyrs",
				"city": "Paris",
				"state_name": "XX",
				"postal_code": "75014",
				"country_code": "FR"
			}
		},
		"dropoff_location": {
			"location": {
				"code": "AE2",
				"name": "Paris Gare Montparnasse",
				"telephone": "(33) 8 20 00 61 00",
				"hours": "Sun 8:00 AM - 10:30 PM; Mon - Fri 7:00 AM - 9:30 PM; Sat 7:00 AM - 7:00 PM",
				"airport_location": false
			},
			"address": {
				"address_line_1": "Hall 2 Pasteur",
				"address_line_2": "5 Place Des Martyrs",
				"city": "Paris",
				"state_name": "XX",
				"postal_code": "75014",
				"country_code": "FR"
			}
		},
		"status": "AVAILABLE",
		"parts": {
			"path1": {
				"type": "",
				"severity": 0
			},
			"path2": {
				"type": "",
				"severity": 0
			},
			"path3": {
				"type": "",
				"severity": 0
			},
			"path4": {
				"type": "",
				"severity": 0
			},
			"path5": {
				"type": "",
				"severity": 0
			},
			"path6": {
				"type": "",
				"severity": 0
			},
			"path7": {
				"type": "",
				"severity": 0
			},
			"path8": {
				"type": "",
				"severity": 0
			},
			"path9": {
				"type": "chip",
				"severity": 0.65
			},
			"path10": {
				"type": "",
				"severity": 0
			},
			"path11": {
				"type": "",
				"severity": 0
			},
			"path12": {
				"type": "",
				"severity": 0
			},
			"path13": {
				"type": "scratch",
				"severity": 0.62
			},
			"path14": {
				"type": "",
				"severity": 0
			},
			"path15": {
				"type": "",
				"severity": 0
			}
		}
	},
	{
		"id": "87ab0891-5d85-ef11-bdfd-000d3ab84645",
		"createdAt": "1728382248363",
		"updatedAt": "1730986178445",
		"createdBy": "emmanuella.ndukwe@neptune-software.com",
		"updatedBy": "emmanuella.ndukwe@neptune-software.com",
		"name": "Mercedes-bmw-ix-suv-white",
		"make": "Mercedes",
		"model": "2023",
		"vehicle_transmission": "Manual",
		"image_url": "/media/root/CarDamageSelectorApp/bmw-ix-suv-white-2023.png",
		"features": {
			"bluetooth_equipped": false,
			"air_conditioned": true,
			"connected_car": false
		},
		"doors": "3",
		"seats": "4",
		"currency": "EUR",
		"vehicle_total": "151",
		"reservation_total": "175.2",
		"pickup_location": {
			"location": {
				"code": "AE2",
				"name": "Paris Gare Montparnasse",
				"telephone": "(33) 8 20 00 61 00",
				"hours": "Sun 8:00 AM - 10:30 PM; Mon - Fri 7:00 AM - 9:30 PM; Sat 7:00 AM - 7:00 PM",
				"airport_location": false
			},
			"address": {
				"address_line_1": "Hall 2 Pasteur",
				"address_line_2": "5 Place Des Martyrs",
				"city": "Paris",
				"state_name": "XX",
				"postal_code": "75014",
				"country_code": "FR"
			}
		},
		"dropoff_location": {
			"location": {
				"code": "AE2",
				"name": "Paris Gare Montparnasse",
				"telephone": "(33) 8 20 00 61 00",
				"hours": "Sun 8:00 AM - 10:30 PM; Mon - Fri 7:00 AM - 9:30 PM; Sat 7:00 AM - 7:00 PM",
				"airport_location": false
			},
			"address": {
				"address_line_1": "Hall 2 Pasteur",
				"address_line_2": "5 Place Des Martyrs",
				"city": "Paris",
				"state_name": "XX",
				"postal_code": "75014",
				"country_code": "FR"
			}
		},
		"status": "AVAILABLE",
		"parts": {
			"path1": {
				"type": "",
				"severity": 0
			},
			"path2": {
				"type": "",
				"severity": 0
			},
			"path3": {
				"type": "",
				"severity": 0
			},
			"path4": {
				"type": "",
				"severity": 0
			},
			"path5": {
				"type": "",
				"severity": 0
			},
			"path6": {
				"type": "",
				"severity": 0
			},
			"path7": {
				"type": "",
				"severity": 0
			},
			"path8": {
				"type": "",
				"severity": 0
			},
			"path9": {
				"type": "chip",
				"severity": 0.65
			},
			"path10": {
				"type": "",
				"severity": 0
			},
			"path11": {
				"type": "",
				"severity": 0
			},
			"path12": {
				"type": "",
				"severity": 0
			},
			"path13": {
				"type": "scratch",
				"severity": 0.62
			},
			"path14": {
				"type": "",
				"severity": 0
			},
			"path15": {
				"type": "",
				"severity": 0
			}
		}
	},
	{
		"id": "86ab0891-5d85-ef11-bdfd-000d3ab84645",
		"createdAt": "1728382248362",
		"updatedAt": "1730986178445",
		"createdBy": "emmanuella.ndukwe@neptune-software.com",
		"updatedBy": "emmanuella.ndukwe@neptune-software.com",
		"name": "Vito Tourer Van",
		"make": "Hyundai",
		"model": "2014-JV",
		"vehicle_transmission": "Automatic",
		"image_url": "/media/root/CarDamageSelectorApp/mb-vito-tourer-van-4d-silver-2014-JV.png",
		"features": {
			"bluetooth_equipped": false,
			"air_conditioned": true,
			"connected_car": false
		},
		"doors": "5",
		"seats": "5",
		"currency": "EUR",
		"vehicle_total": "204.6",
		"reservation_total": "245.52",
		"pickup_location": {
			"location": {
				"code": "AE2",
				"name": "Paris Gare Montparnasse",
				"telephone": "(33) 8 20 00 61 00",
				"hours": "Sun 8:00 AM - 10:30 PM; Mon - Fri 7:00 AM - 9:30 PM; Sat 7:00 AM - 7:00 PM",
				"airport_location": false
			},
			"address": {
				"address_line_1": "Hall 2 Pasteur",
				"address_line_2": "5 Place Des Martyrs",
				"city": "Paris",
				"state_name": "XX",
				"postal_code": "75014",
				"country_code": "FR"
			}
		},
		"dropoff_location": {
			"location": {
				"code": "AE2",
				"name": "Paris Gare Montparnasse",
				"telephone": "(33) 8 20 00 61 00",
				"hours": "Sun 8:00 AM - 10:30 PM; Mon - Fri 7:00 AM - 9:30 PM; Sat 7:00 AM - 7:00 PM",
				"airport_location": false
			},
			"address": {
				"address_line_1": "Hall 2 Pasteur",
				"address_line_2": "5 Place Des Martyrs",
				"city": "Paris",
				"state_name": "XX",
				"postal_code": "75014",
				"country_code": "FR"
			}
		},
		"status": "RENTED",
		"parts": {
			"path1": {
				"type": "",
				"severity": 0
			},
			"path2": {
				"type": "",
				"severity": 0
			},
			"path3": {
				"type": "",
				"severity": 0
			},
			"path4": {
				"type": "",
				"severity": 0
			},
			"path5": {
				"type": "",
				"severity": 0
			},
			"path6": {
				"type": "",
				"severity": 0
			},
			"path7": {
				"type": "",
				"severity": 0
			},
			"path8": {
				"type": "",
				"severity": 0
			},
			"path9": {
				"type": "chip",
				"severity": 0.65
			},
			"path10": {
				"type": "",
				"severity": 0
			},
			"path11": {
				"type": "",
				"severity": 0
			},
			"path12": {
				"type": "",
				"severity": 0
			},
			"path13": {
				"type": "scratch",
				"severity": 0.62
			},
			"path14": {
				"type": "",
				"severity": 0
			},
			"path15": {
				"type": "",
				"severity": 0
			}
		}
	},
	{
		"id": "85ab0891-5d85-ef11-bdfd-000d3ab84645",
		"createdAt": "1728382248362",
		"updatedAt": "1730992419749",
		"createdBy": "emmanuella.ndukwe@neptune-software.com",
		"updatedBy": "emmanuella.ndukwe@neptune-software.com",
		"name": "Audi A3",
		"make": "Audi",
		"model": "a3-4d-grey-2021",
		"vehicle_transmission": "Manual",
		"image_url": "/media/root/CarDamageSelectorApp/audi-a3-4d-grey-2021.png",
		"features": {
			"bluetooth_equipped": false,
			"air_conditioned": true,
			"connected_car": false
		},
		"doors": "5",
		"seats": "5",
		"currency": "EUR",
		"vehicle_total": "125",
		"reservation_total": "145.2",
		"pickup_location": {
			"location": {
				"code": "AE2",
				"name": "Paris Gare Montparnasse",
				"telephone": "(33) 8 20 00 61 00",
				"hours": "Sun 8:00 AM - 10:30 PM; Mon - Fri 7:00 AM - 9:30 PM; Sat 7:00 AM - 7:00 PM",
				"airport_location": false
			},
			"address": {
				"address_line_1": "Hall 2 Pasteur",
				"address_line_2": "5 Place Des Martyrs",
				"city": "Paris",
				"state_name": "XX",
				"postal_code": "75014",
				"country_code": "FR"
			}
		},
		"dropoff_location": {
			"location": {
				"code": "AE2",
				"name": "Paris Gare Montparnasse",
				"telephone": "(33) 8 20 00 61 00",
				"hours": "Sun 8:00 AM - 10:30 PM; Mon - Fri 7:00 AM - 9:30 PM; Sat 7:00 AM - 7:00 PM",
				"airport_location": false
			},
			"address": {
				"address_line_1": "Hall 2 Pasteur",
				"address_line_2": "5 Place Des Martyrs",
				"city": "Paris",
				"state_name": "XX",
				"postal_code": "75014",
				"country_code": "FR"
			}
		},
		"status": "AVAILABLE",
		"parts": {
			"path1": {
				"type": "",
				"severity": 0
			},
			"path2": {
				"type": "",
				"severity": 0
			},
			"path3": {
				"type": "",
				"severity": 0
			},
			"path4": {
				"type": "",
				"severity": 0
			},
			"path5": {
				"type": "",
				"severity": 0
			},
			"path6": {
				"type": "",
				"severity": 0
			},
			"path7": {
				"type": "",
				"severity": 0
			},
			"path8": {
				"type": "",
				"severity": 0
			},
			"path9": {
				"type": "scratch",
				"severity": 0.63
			},
			"path10": {
				"type": "",
				"severity": 0
			},
			"path11": {
				"type": "",
				"severity": 0
			},
			"path12": {
				"type": "",
				"severity": 0
			},
			"path13": {
				"type": "",
				"severity": 0
			},
			"path14": {
				"type": "",
				"severity": 0
			},
			"path15": {
				"type": "",
				"severity": 0
			}
		}
	},
	{
		"id": "84ab0891-5d85-ef11-bdfd-000d3ab84645",
		"createdAt": "1728382248361",
		"updatedAt": "1730986178445",
		"createdBy": "emmanuella.ndukwe@neptune-software.com",
		"updatedBy": "emmanuella.ndukwe@neptune-software.com",
		"name": "Mercedes-Benz",
		"make": "Mercedes",
		"model": "bmw-3-touring-stw",
		"vehicle_transmission": "Manual",
		"image_url": "/media/root/CarDamageSelectorApp/bmw-3-touring-stw-4d-grey-2023-JV.png",
		"features": {
			"bluetooth_equipped": false,
			"air_conditioned": true,
			"connected_car": false
		},
		"doors": "5",
		"seats": "5",
		"currency": "EUR",
		"vehicle_total": "145",
		"reservation_total": "165.2",
		"pickup_location": {
			"location": {
				"code": "AE2",
				"name": "Paris Gare Montparnasse",
				"telephone": "(33) 8 20 00 61 00",
				"hours": "Sun 8:00 AM - 10:30 PM; Mon - Fri 7:00 AM - 9:30 PM; Sat 7:00 AM - 7:00 PM",
				"airport_location": false
			},
			"address": {
				"address_line_1": "Hall 2 Pasteur",
				"address_line_2": "5 Place Des Martyrs",
				"city": "Paris",
				"state_name": "XX",
				"postal_code": "75014",
				"country_code": "FR"
			}
		},
		"dropoff_location": {
			"location": {
				"code": "AE2",
				"name": "Paris Gare Montparnasse",
				"telephone": "(33) 8 20 00 61 00",
				"hours": "Sun 8:00 AM - 10:30 PM; Mon - Fri 7:00 AM - 9:30 PM; Sat 7:00 AM - 7:00 PM",
				"airport_location": false
			},
			"address": {
				"address_line_1": "Hall 2 Pasteur",
				"address_line_2": "5 Place Des Martyrs",
				"city": "Paris",
				"state_name": "XX",
				"postal_code": "75014",
				"country_code": "FR"
			}
		},
		"status": "AVAILABLE",
		"parts": {
			"path1": {
				"type": "",
				"severity": 0
			},
			"path2": {
				"type": "",
				"severity": 0
			},
			"path3": {
				"type": "",
				"severity": 0
			},
			"path4": {
				"type": "",
				"severity": 0
			},
			"path5": {
				"type": "",
				"severity": 0
			},
			"path6": {
				"type": "",
				"severity": 0
			},
			"path7": {
				"type": "",
				"severity": 0
			},
			"path8": {
				"type": "",
				"severity": 0
			},
			"path9": {
				"type": "chip",
				"severity": 0.65
			},
			"path10": {
				"type": "",
				"severity": 0
			},
			"path11": {
				"type": "",
				"severity": 0
			},
			"path12": {
				"type": "",
				"severity": 0
			},
			"path13": {
				"type": "scratch",
				"severity": 0.62
			},
			"path14": {
				"type": "",
				"severity": 0
			},
			"path15": {
				"type": "",
				"severity": 0
			}
		}
	}
]